{
    "count": 264,
    "next": "https://data.gov.spb.ru/api/v2/datasets/149/versions/latest/data/327/?page=2&per_page=100",
    "previous": null,
    "results": [
      {
        "number": 1,
        "name": "ГБУ \"Санкт Петербургский НИИ скорой помощи имени И.И. Джанелидзе\"",
        "type": "Клиники HИИ",
        "address": "192242, Санкт Петербург, ул. Будапештская, д. 3/5",
        "coordinates": [
          59.8743,
          30.3641
        ],
        "district": "Фрунзенский",
        "chief": "Мануковский Вадим Анатольевич",
        "phone": "384-46-75",
        "fax": "384-46-75",
        "mode": ""
      },
      {
        "number": 2,
        "name": "ГБУЗ \"Санкт-Петербургский клинический научно-практический центр специализированных видов медицинской помощи (онкологический)\"",
        "type": "Прочие больничные учреждения",
        "address": "197758, Санкт-Петербург, п.Песочный, ул. Ленинградская, д.68а, лит.А",
        "coordinates": [
          60.1203,
          30.1873
        ],
        "district": "Курортный",
        "chief": "Моисеенко Владимир Михайлович",
        "phone": "573-91-91",
        "fax": "573-91-91",
        "mode": null
      },
      {
        "number": 3,
        "name": "СПб ГАУЗ \"Городская поликлиника №40\"",
        "type": "Поликлиники",
        "address": "191025, Санкт-Петербург, пр. Невский, д. 84-86",
        "coordinates": [
          59.9326,
          30.3507
        ],
        "district": "Центральный",
        "chief": "Ченцов Дмитрий Викторович",
        "phone": "244-38-68",
        "fax": "244-38-69",
        "mode": null
      },
      {
        "number": 4,
        "name": "СПб ГАУЗ \"Городская поликлиника №81\"",
        "type": "Хозрасчетные поликлиники, амбулатории",
        "address": "190000, Санкт-Петербург, Казанская ул., д.54, литера А",
        "coordinates": [
          59.9279,
          30.3079
        ],
        "district": "Адмиралтейский",
        "chief": "Иванов Константин Георгиевич",
        "phone": "315-25-10",
        "fax": null,
        "mode": null
      },
      {
        "number": 5,
        "name": "СПб ГАУЗ \"Городская поликлиника №83\"",
        "type": "Хозрасчетные поликлиники, амбулатории",
        "address": "197198, Санкт-Петербург, пр. Большой П.С., д. 10",
        "coordinates": [
          59.9543,
          30.29
        ],
        "district": "Петроградский",
        "chief": "Кузьмин-Крутецкий Михаил Игоревич",
        "phone": "233-67-69",
        "fax": "235-82-89",
        "mode": null
      },
      {
        "number": 6,
        "name": "СПб ГАУЗ \"Поликлиника городская стоматологическая №22\"",
        "type": "Хозрасчетные стоматологические поликлиники",
        "address": "191014, Санкт-Петербург, пер. Басков, д. 38",
        "coordinates": [
          59.9393,
          30.3661
        ],
        "district": "Центральный",
        "chief": "Прожерина Неонила Георгиевна",
        "phone": "327-33-10",
        "fax": "273-70-13",
        "mode": null
      },
      {
        "number": 7,
        "name": "СПб ГАУЗ \"Хоспис (детский и взрослый)\"",
        "type": "Хосписы",
        "address": "192131, Санкт Петербург, ул.Бабушкина, д.56 корп.3 лит.А",
        "coordinates": [
          59.8699,
          30.453
        ],
        "district": "Невский",
        "chief": "Кушнарева Ирина Владимировна",
        "phone": "576 19 74",
        "fax": "576 19 74",
        "mode": ""
      },
      {
        "number": 8,
        "name": "СПб ГБПОУ \"Акушерский колледж\"",
        "type": "Учреждение среднего профессионального образования",
        "address": "195269, Санкт-Петербург, ул. Учительская, д. 9, корп. 3",
        "coordinates": [
          60.0333,
          30.39
        ],
        "district": "Калининский",
        "chief": "Батраков Дмитрий Юрьевич",
        "phone": "246-22-50",
        "fax": "246-22-50",
        "mode": null
      },
      {
        "number": 9,
        "name": "СПб ГБПОУ \"Медицинский колледж №1\"",
        "type": "Учреждение среднего профессионального образования",
        "address": "198188, Санкт-Петербург, ул. Зайцева, д. 28, лит. А",
        "coordinates": [
          59.8794,
          30.2722
        ],
        "district": "Кировский",
        "chief": "Бубликова Ирина Владимировна",
        "phone": "786-01-44",
        "fax": "786-01-44",
        "mode": null
      },
      {
        "number": 10,
        "name": "СПб ГБПОУ \"Медицинский колледж №2\"",
        "type": "Учреждение среднего профессионального образования",
        "address": "198205, Санкт-Петербург, ул. Чекистов, д. 18",
        "coordinates": [
          59.842,
          30.1784
        ],
        "district": "Красносельский",
        "chief": "Ряскин Александр Николаевич",
        "phone": "409-70-13",
        "fax": "409-70-13",
        "mode": null
      },
      {
        "number": 11,
        "name": "СПб ГБПОУ \"Медицинский колледж №3\"",
        "type": "Учреждение среднего профессионального образования",
        "address": "194354, Санкт-Петербург, пер. Учебный, д. 9",
        "coordinates": [
          60.0369,
          30.3416
        ],
        "district": "Выборгский",
        "chief": "Федотова Наталия Витальевна",
        "phone": "510-67-44",
        "fax": "510-67-44",
        "mode": null
      },
      {
        "number": 12,
        "name": "СПб ГБПОУ \"Медицинский колледж им. В.М. Бехтерева\"",
        "type": "Учреждение среднего профессионального образования",
        "address": "196247, Санкт-Петербург, пр. Ленинский, д. 149",
        "coordinates": [
          59.8509,
          30.2991
        ],
        "district": "Московский",
        "chief": "Курбатова Ульяна Борисовна\"",
        "phone": "246-24-43",
        "fax": "246-24-43",
        "mode": null
      },
      {
        "number": 13,
        "name": "СПб ГБПОУ \"Медицинский техникум №2\"",
        "type": "Учреждение среднего профессионального образования",
        "address": "192102, Санкт Петербург, Волковский пр., 106",
        "coordinates": [
          59.8893,
          30.3559
        ],
        "district": "Фрунзенский",
        "chief": "Храмцова Светлана Владимировна",
        "phone": "246 32 30",
        "fax": "246 32 30",
        "mode": ""
      },
      {
        "number": 14,
        "name": "СПб ГБПОУ \"Медицинский техникум №9\"",
        "type": "Учреждение среднего профессионального образования",
        "address": "197183, Санкт-Петербург, ул. Савушкина, д. 5",
        "coordinates": [
          59.9877,
          30.2981
        ],
        "district": "Приморский",
        "chief": "Спиридонова Любовь Николаевна",
        "phone": "246-31-67",
        "fax": "246-31-67",
        "mode": null
      },
      {
        "number": 15,
        "name": "СПб ГБПОУ \"Фельдшерский колледж\"",
        "type": "Учреждение среднего профессионального образования",
        "address": "195267, Санкт-Петербург, ул. Ушинского, д. 45",
        "coordinates": [
          60.0438,
          30.4179
        ],
        "district": "Калининский",
        "chief": "Котова Галина Николаевна",
        "phone": "531-16-22",
        "fax": null,
        "mode": null
      },
      {
        "number": 16,
        "name": "СПб ГБУ \"Психоневрологический диспансер №10\"",
        "type": "Психоневрологические диспансеры",
        "address": "190121, Санкт-Петербург, пер. Матвеева, д. 3 литера Г",
        "coordinates": [
          59.9264,
          30.2915
        ],
        "district": "Адмиралтейский",
        "chief": "Серебрякова Елена Вячеславовна",
        "phone": "714-20-10",
        "fax": "714-20-10",
        "mode": null
      },
      {
        "number": 17,
        "name": "СПб ГБУ ДПО \"Центр последипломного образования специалистов медицинского профиля \"",
        "type": "Учреждение среднего профессионального образования",
        "address": "191028, Санкт-Петербург, ул. Кирочная, д. 16",
        "coordinates": [
          59.9441,
          30.355
        ],
        "district": "Центральный",
        "chief": "Регентова Елена Сергеевна",
        "phone": "272-17-37",
        "fax": "273-32-18",
        "mode": null
      },
      {
        "number": 18,
        "name": "СПб ГБУЗ \"Бюро судебно-медицинской экспертизы\"",
        "type": "Учреждения здравоохранения особого типа",
        "address": "195067, Санкт-Петербург, пр. Екатерининский, д. 10",
        "coordinates": [
          59.9844,
          30.4382
        ],
        "district": "Красногвардейский",
        "chief": "Ягмуров Оразмурад Джумаевич",
        "phone": "544-17-17",
        "fax": "544-17-17",
        "mode": null
      },
      {
        "number": 19,
        "name": "СПб ГБУЗ \"Введенская городская клиническая больница\"",
        "type": "Городские больницы (включая клинические)",
        "address": "191180, Санкт-Петербург, пер. Лазаретный, д. 4",
        "coordinates": [
          59.9216,
          30.3274
        ],
        "district": "Адмиралтейский",
        "chief": "Парцерняк Сергей Александрович",
        "phone": "764-77-83",
        "fax": "764-77-83",
        "mode": null
      },
      {
        "number": 20,
        "name": "СПб ГБУЗ \"Санаторий для детей \"Огонек\"",
        "type": "Санаторно-курортные учреждения",
        "address": "198515, Санкт-Петербург, п.Стрельна, Санкт-Петербургское шоссе, д.101а",
        "coordinates": [
          59.8566,
          30.0158
        ],
        "district": "Петродворцовый",
        "chief": "Фалинский Александр Александрович",
        "phone": "421-11-45",
        "fax": "421-11-45",
        "mode": ""
      },
      {
        "number": 21,
        "name": "СПб ГБУЗ \"Врачебно-физкультурный диспансер №3 (межрайонный)\"",
        "type": "Врачебно - физкультурные диспансеры",
        "address": "198152, Санкт-Петербург, ул. Автовская, д. 18",
        "coordinates": [
          59.8694,
          30.2699
        ],
        "district": "Кировский",
        "chief": "Ефимов Игорь Анатольевич",
        "phone": "573-98-50",
        "fax": "784-85-38",
        "mode": null
      },
      {
        "number": 22,
        "name": "СПб ГБУЗ \"Врачебно-физкультурный диспансер Красногвардейского района\"",
        "type": "Врачебно - физкультурные диспансеры",
        "address": "195112, Санкт-Петербург, пр. Новочеркасский, д. 15",
        "coordinates": [
          59.9367,
          30.4057
        ],
        "district": "Красногвардейский",
        "chief": "Аскарова Мария Владимировна",
        "phone": "528-88-70",
        "fax": "528-88-70",
        "mode": null
      },
      {
        "number": 23,
        "name": "СПб ГБУЗ \"Гериатрическая больница №1\"",
        "type": "Гериатрические больницы",
        "address": "194214, Санкт-Петербург, ул. Ракитовская, д. 29",
        "coordinates": [
          60.0298,
          30.3077
        ],
        "district": "Выборгский",
        "chief": "Дейбук Алексей Григорьевич",
        "phone": "293-45-49",
        "fax": "293-45-49",
        "mode": null
      },
      {
        "number": 24,
        "name": "СПб ГБУЗ \"Городская Александровская больница\"",
        "type": "Городские больницы (включая клинические)",
        "address": "193312, Санкт-Петербург, пр. Солидарности, д. 4",
        "coordinates": [
          59.928,
          30.4893
        ],
        "district": "Невский",
        "chief": "Линец Юрий Павлович",
        "phone": "583-16-23",
        "fax": "589-11-41",
        "mode": null
      },
      {
        "number": 25,
        "name": "СПб ГБУЗ \"Городская больница №14\"",
        "type": "Городские больницы (включая клинические)",
        "address": "198099, Санкт-Петербург, ул. Косинова, д. 19/9",
        "coordinates": [
          59.8953,
          30.2716
        ],
        "district": "Кировский",
        "chief": "Хохлова Ирина Михайловна",
        "phone": "786-76-76",
        "fax": "786-87-39",
        "mode": null
      },
      {
        "number": 26,
        "name": "СПб ГБУЗ \"Городская больница №15\"",
        "type": "Городские больницы (включая клинические)",
        "address": "198205, Санкт-Петербург, ул. Авангардная, д. 4",
        "coordinates": [
          59.8395,
          30.1815
        ],
        "district": "Красносельский",
        "chief": "Новицкий Андрей Викторович",
        "phone": "330-15-15",
        "fax": "735-07-66",
        "mode": null
      },
      {
        "number": 27,
        "name": "СПб ГБУЗ \"Городская больница №20\"",
        "type": "Городские больницы (включая клинические)",
        "address": "196135, Санкт-Петербург, ул. Гастелло, д. 21",
        "coordinates": [
          59.857,
          30.3345
        ],
        "district": "Московский",
        "chief": "Суровцева Татьяна Викторовна",
        "phone": "373-30-31",
        "fax": "373-70-10",
        "mode": null
      },
      {
        "number": 28,
        "name": "СПб ГБУЗ \"Городская больница №26\"",
        "type": "Городские больницы (включая клинические)",
        "address": "196247, Санкт-Петербург, ул. Костюшко, д. 2",
        "coordinates": [
          59.8491,
          30.2955
        ],
        "district": "Московский",
        "chief": "Дорофеев Василий Иванович",
        "phone": "415-18-72",
        "fax": "415-19-02",
        "mode": null
      },
      {
        "number": 29,
        "name": "СПб ГБУЗ \"Городская больница №28 \"Максимилиановская\"",
        "type": "Городские больницы (включая клинические)",
        "address": "190000, Санкт-Петербург, ул. Декабристов, д. 1-3",
        "coordinates": [
          59.9294,
          30.3077
        ],
        "district": "Адмиралтейский",
        "chief": "Савицкая Ирина Владимировна",
        "phone": "314-51-92",
        "fax": "314-81-93",
        "mode": null
      },
      {
        "number": 30,
        "name": "СПб ГБУЗ \"Городская больница №33\"",
        "type": "Городские больницы (включая клинические)",
        "address": "196653,Санкт-Петербург, г.Колпино, ул. Павловская, д.16, лит. А",
        "coordinates": [
          59.7472,
          30.5853
        ],
        "district": "Колпинский",
        "chief": "Журавлёв Сергей Васильевич",
        "phone": "246-56-00",
        "fax": "246-56-00",
        "mode": ""
      },
      {
        "number": 31,
        "name": "СПб ГБУЗ \"Городская больница №38 им. Н.А.Семашко\"",
        "type": "Городские больницы (включая клинические)",
        "address": "196600, Санкт-Петербург, г.Пушкин, ул.Госпитальная, д.7/2 литер А",
        "coordinates": [
          59.7185,
          30.4178
        ],
        "district": "Пушкинский",
        "chief": "Панфиленко Александр Федорович",
        "phone": "718-39-25",
        "fax": "406-77-43",
        "mode": null
      },
      {
        "number": 32,
        "name": "СПб ГБУЗ \"Городская больница №40 Курортного района\"",
        "type": "Городские больницы (включая клинические)",
        "address": "197706, Санкт-Петербург, г.Сестрорецк, ул. Борисова, д. 9, лит.Б",
        "coordinates": [
          60.1022,
          29.9699
        ],
        "district": "Курортный",
        "chief": "Щербак Сергей Григорьевич",
        "phone": "437-10-35",
        "fax": "437-14-92",
        "mode": null
      },
      {
        "number": 33,
        "name": "СПб ГБУЗ \"Городская больница №9\"",
        "type": "Городские больницы (включая клинические)",
        "address": "197110, Санкт-Петербург, пр.Крестовский, д.18",
        "coordinates": [
          59.9687,
          30.2611
        ],
        "district": "Петроградский",
        "chief": "Шишкин Юрий Михайлович",
        "phone": "+7(931) 957-13-40",
        "fax": "",
        "mode": ""
      },
      {
        "number": 34,
        "name": "СПб ГБУЗ \"Городская больница Св. Георгия\"",
        "type": "Городские больницы (включая клинические)",
        "address": "194354, Санкт-Петербург, пр. Северный, д. 1",
        "coordinates": [
          60.0292,
          30.3274
        ],
        "district": "Выборгский",
        "chief": "Стрижелецкий Валерий Викторович",
        "phone": "511-96-00",
        "fax": "511-95-00",
        "mode": null
      },
      {
        "number": 35,
        "name": "СПб ГБУЗ \"Городская больница Святого Праведного Иоанна Кронштадтского\"",
        "type": "Городские больницы (включая клинические)",
        "address": "197762, Санкт-Петербург, г.Кронштадт, ул. Газовый завод, д. 3, лит. А",
        "coordinates": [
          59.988,
          29.7966
        ],
        "district": "Кронштадтский",
        "chief": "Новик Юрий Алексеевич",
        "phone": "409-81-32",
        "fax": "435-31-44",
        "mode": null
      },
      {
        "number": 36,
        "name": "СПб ГБУЗ \"Городская детская стоматологическая поликлиника №6\"",
        "type": "Детские стоматологические поликлиники",
        "address": "198068, Санкт-Петербург, пр. Вознесенский, д.34 литер В",
        "coordinates": [
          59.9256,
          30.3087
        ],
        "district": "Адмиралтейский",
        "chief": "Седнева Яна Юрьевна",
        "phone": "310-06-84",
        "fax": "310-08-85",
        "mode": null
      },
      {
        "number": 37,
        "name": "СПб ГБУЗ \"Городская клиническая больница №31\"",
        "type": "Городские больницы (включая клинические)",
        "address": "197110, Санкт-Петербург, пр. Динамо, д. 3",
        "coordinates": [
          59.9722,
          30.2791
        ],
        "district": "Петроградский",
        "chief": "Рывкин Анатолий Юрьевич",
        "phone": "246-00-01",
        "fax": "246-00-01",
        "mode": null
      },
      {
        "number": 38,
        "name": "СПб ГБУЗ \"Городская Мариинская больница\"",
        "type": "Городские больницы (включая клинические)",
        "address": "191104, Санкт-Петербург, пр. Литейный, д. 56",
        "coordinates": [
          59.9351,
          30.3494
        ],
        "district": "Центральный",
        "chief": "Реутский Игорь Александрович",
        "phone": "275-74-33",
        "fax": "275-73-26",
        "mode": ""
      },
      {
        "number": 39,
        "name": "СПб ГБУЗ \"Городская многопрофильная больница №2\"",
        "type": "Городские больницы (включая клинические)",
        "address": "194354, Санкт-Петербург, пер. Учебный, д. 5",
        "coordinates": [
          60.0372,
          30.3367
        ],
        "district": "Выборгский",
        "chief": "Волчков Владимир Анатольевич",
        "phone": "338-48-84",
        "fax": "296-40-67",
        "mode": null
      },
      {
        "number": 40,
        "name": "СПб ГБУЗ \"Городская наркологическая больница\"",
        "type": "Наркологические больницы",
        "address": "199004, Санкт-Петербург, линия. 5-я В.О., д. 58-60, лит. А",
        "coordinates": [
          59.9465,
          30.2776
        ],
        "district": "Василеостровский",
        "chief": "Константинов Дмитрий Павлович",
        "phone": "323-43-08",
        "fax": "323-43-08",
        "mode": null
      },
      {
        "number": 41,
        "name": "СПб ГБУЗ \"Городская Покровская больница\"",
        "type": "Городские больницы (включая клинические)",
        "address": "199106, Санкт-Петербург, пр. Большой В.О., д. 85",
        "coordinates": [
          59.9312,
          30.2536
        ],
        "district": "Василеостровский",
        "chief": "Бахолдина Марина Николаевна",
        "phone": "322-25-98",
        "fax": "322-00-78",
        "mode": null
      },
      {
        "number": 42,
        "name": "СПб ГБУЗ \"Городская поликлиника №100 Невского района Санкт-Петербурга\"",
        "type": "Поликлиники",
        "address": "193318, Санкт-Петербург, пр.Искровский, д.10",
        "coordinates": [
          59.9114,
          30.4621
        ],
        "district": "Невский",
        "chief": "Шурупов Денис Алексеевич",
        "phone": "246-33-11",
        "fax": "246-33-11",
        "mode": ""
      },
      {
        "number": 43,
        "name": "СПб ГБУЗ \"Городская поликлиника №102\"",
        "type": "Поликлиники",
        "address": "197341, Санкт-Петербург, ул. Королева, д. 5",
        "coordinates": [
          60.0104,
          30.2919
        ],
        "district": "Приморский",
        "chief": "Новикова Татьяна Николаевна",
        "phone": "417-23-89",
        "fax": "301-88-17",
        "mode": null
      },
      {
        "number": 44,
        "name": "СПб ГБУЗ \"Городская поликлиника №104\"",
        "type": "Поликлиники",
        "address": "194354, Санкт-Петербург, ул.Сикейроса, д.10, литер А",
        "coordinates": [
          60.0356,
          30.331
        ],
        "district": "Выборгский",
        "chief": "Мансуров Ильдар Риялович",
        "phone": "576-37-52",
        "fax": "576-37-52",
        "mode": null
      },
      {
        "number": 45,
        "name": "СПб ГБУЗ \"Городская поликлиника №106\"",
        "type": "Поликлиники",
        "address": "198328, Санкт-Петербург, ул.Рихарда Зорге, д.1",
        "coordinates": [
          59.8502,
          30.1776
        ],
        "district": "Красносельский",
        "chief": "Кунин Вадим Григорьевич",
        "phone": "246-02-00",
        "fax": "246-02-00",
        "mode": null
      },
      {
        "number": 46,
        "name": "СПб ГБУЗ \"Городская поликлиника №107\"",
        "type": "Поликлиники",
        "address": "195030, Санкт-Петербург, ул.Коммуны, д.36, литер А",
        "coordinates": [
          59.951,
          30.4989
        ],
        "district": "Красногвардейский",
        "chief": "Архипов Игорь Викторович",
        "phone": "777-92-82",
        "fax": "525-52-71",
        "mode": null
      },
      {
        "number": 47,
        "name": "СПб ГБУЗ \"Городская поликлиника №109\"",
        "type": "Поликлиники",
        "address": "192283, Санкт-Петербург, ул.Олеко Дундича, д.8, корп.2",
        "coordinates": [
          59.8293,
          30.3914
        ],
        "district": "Фрунзенский",
        "chief": "Мелихов Евгений Анатольевич",
        "phone": "778-88-54",
        "fax": "778-88-54",
        "mode": null
      },
      {
        "number": 48,
        "name": "СПб ГБУЗ \"Городская поликлиника №111\"",
        "type": "Поликлиники",
        "address": "197349, Санкт-Петербург, ул.Ольховая, д.6",
        "coordinates": [
          60.015,
          30.2638
        ],
        "district": "Приморский",
        "chief": "Клочкова Евгения Леонидовна",
        "phone": "348-99-88",
        "fax": "348-99-88",
        "mode": null
      },
      {
        "number": 49,
        "name": "СПб ГБУЗ \"Городская поликлиника №112\"",
        "type": "Поликлиники",
        "address": "195427, Санкт-Петербург, ул.Академика Байкова, д.25, корп.1",
        "coordinates": [
          60.0241,
          30.3864
        ],
        "district": "Калининский",
        "chief": "Гусев Анатолий Владимирович",
        "phone": "246-73-18",
        "fax": "246-73-18",
        "mode": ""
      },
      {
        "number": 50,
        "name": "СПб ГБУЗ \"Городская поликлиника №114\"",
        "type": "Поликлиники",
        "address": "197374, Санкт-Петербург, ул.Школьная,, д.116, корп.1, литер А",
        "coordinates": [
          59.9913,
          30.2116
        ],
        "district": "Приморский",
        "chief": "Анисимова Светлана Викторовна",
        "phone": "244-48-77",
        "fax": "244-48-77",
        "mode": ""
      },
      {
        "number": 51,
        "name": "СПб ГБУЗ \"Городская поликлиника №117\"",
        "type": "Поликлиники",
        "address": "194358, Санкт-Петербург, ул.Симонова, д.5, корп.1, литер А",
        "coordinates": [
          60.057,
          30.3246
        ],
        "district": "Выборгский",
        "chief": "Сахарчук Валентин Иванович",
        "phone": "497-73-25",
        "fax": "497-73-25",
        "mode": null
      },
      {
        "number": 52,
        "name": "СПб ГБУЗ \"Городская поликлиника №118\"",
        "type": "Поликлиники",
        "address": "195427, Санкт-Петербург, ул.Академика Байкова, д.27",
        "coordinates": [
          60.0236,
          30.3878
        ],
        "district": "Калининский",
        "chief": "Щербакова Елена Геннадьевна",
        "phone": "550-80-90",
        "fax": "550-80-90",
        "mode": null
      },
      {
        "number": 53,
        "name": "СПб ГБУЗ \"Городская поликлиника №120\"",
        "type": "Поликлиники",
        "address": "195426, Санкт-Петербург, ул.Ленская, д.4 к.1, литера А",
        "coordinates": [
          59.9414,
          30.4822
        ],
        "district": "Красногвардейский",
        "chief": "Сафонов Сергей Михайлович",
        "phone": "577-25-00",
        "fax": "577-25-51",
        "mode": null
      },
      {
        "number": 54,
        "name": "СПб ГБУЗ \"Городская поликлиника №122\"",
        "type": "Поликлиники",
        "address": "198412, Санкт-Петербург, г.Ломоносов, ул. Красноармейская, д.20, 198510, Санкт-Петербург, г.Петродворец, ул.Аврова, д.19, литер А",
        "coordinates": [
          59.9073,
          29.7787
        ],
        "district": "Петродворцовый",
        "chief": "Литвинова Елена Владимировна",
        "phone": "423-09-08",
        "fax": "423-09-08",
        "mode": null
      },
      {
        "number": 55,
        "name": "СПб ГБУЗ \"Городская поликлиника №14\"",
        "type": "Поликлиники",
        "address": "194021, Санкт-Петербург, пр. 2-й Муринский, д. 35",
        "coordinates": [
          59.9999,
          30.349
        ],
        "district": "Выборгский",
        "chief": "Панов Виктор Петрович",
        "phone": "550-24-67",
        "fax": "550-22-59",
        "mode": null
      },
      {
        "number": 56,
        "name": "СПб ГБУЗ \"Городская поликлиника №17\"",
        "type": "Поликлиники",
        "address": "195176, Санкт-Петербург, пр. Металлистов, д. 56, лит.А",
        "coordinates": [
          59.9565,
          30.4201
        ],
        "district": "Красногвардейский",
        "chief": "Романов Андрей Владимирович",
        "phone": "222-51-90",
        "fax": "222-62-72",
        "mode": null
      },
      {
        "number": 57,
        "name": "СПб ГБУЗ \"Городская поликлиника №19\"",
        "type": "Поликлиники",
        "address": "192238, Санкт-Петербург, ул. Пражская, д. 11",
        "coordinates": [
          59.8768,
          30.3848
        ],
        "district": "Фрунзенский",
        "chief": "Карайланов Михаил Георгиевич",
        "phone": "246-15-30",
        "fax": "269-11-29",
        "mode": null
      },
      {
        "number": 58,
        "name": "СПб ГБУЗ \"Городская поликлиника №21\"",
        "type": "Поликлиники",
        "address": "196247, Санкт-Петербург, ул. Костюшко, д. 6",
        "coordinates": [
          59.8494,
          30.2993
        ],
        "district": "Московский",
        "chief": "Никитин Андрей Иванович",
        "phone": "242-35-37",
        "fax": "375-39-12",
        "mode": null
      },
      {
        "number": 59,
        "name": "СПб ГБУЗ \"Городская поликлиника №22\"",
        "type": "Поликлиники",
        "address": "196651, Санкт-Петербург, г.Колпино, Финляндская ул., д.13 корп.4 лит.БТ",
        "coordinates": [
          59.7516,
          30.5949
        ],
        "district": "Колпинский",
        "chief": "Волков Алексей Яковлевич",
        "phone": "573-99-50",
        "fax": "573-99-50",
        "mode": null
      },
      {
        "number": 60,
        "name": "СПб ГБУЗ \"Городская поликлиника №23\"",
        "type": "Поликлиники",
        "address": "198099, Санкт-Петербург, ул. Косинова, д. 17, лит.А",
        "coordinates": [
          59.8962,
          30.2722
        ],
        "district": "Кировский",
        "chief": "Мельник Ольга Алексеевна",
        "phone": "786-66-66",
        "fax": "786-66-66",
        "mode": null
      },
      {
        "number": 61,
        "name": "СПб ГБУЗ \"Городская поликлиника №24\"",
        "type": "Поликлиники",
        "address": "198013, Санкт-Петербург, ул. Серпуховская, д. 7",
        "coordinates": [
          59.9162,
          30.3219
        ],
        "district": "Адмиралтейский",
        "chief": "Кнестяпин Руслан Вадимович",
        "phone": "409-80-97",
        "fax": "316-16-55",
        "mode": null
      },
      {
        "number": 62,
        "name": "СПб ГБУЗ \"Городская поликлиника №25 Невского района\"",
        "type": "Поликлиники",
        "address": "193318, Санкт-Петербург, пр.Солидарности, д.1 корп.1, лит. А",
        "coordinates": [
          59.9287,
          30.4855
        ],
        "district": "Невский",
        "chief": "Колбин Михаил Юрьевич",
        "phone": "580-88-32",
        "fax": "580-88-32",
        "mode": null
      },
      {
        "number": 63,
        "name": "СПб ГБУЗ \"Городская поликлиника №27\"",
        "type": "Поликлиники",
        "address": "190068, Санкт-Петербург, пр. Вознесенский, д. 29, лит.А",
        "coordinates": [
          59.9256,
          30.3079
        ],
        "district": "Адмиралтейский",
        "chief": "Команенко Андрей Александрович",
        "phone": "246-39-98",
        "fax": "246-39-98",
        "mode": null
      },
      {
        "number": 64,
        "name": "СПб ГБУЗ \"Городская поликлиника №28\"",
        "type": "Поликлиники",
        "address": "190013, Санкт-Петербург, пер. Подъездной, д. 2 литер А",
        "coordinates": [
          59.9208,
          30.3302
        ],
        "district": "Адмиралтейский",
        "chief": "Давыдов Сергей Вячеславович",
        "phone": "764-67-00",
        "fax": "764-67-00",
        "mode": null
      },
      {
        "number": 65,
        "name": "СПб ГБУЗ \"Городская поликлиника №3\"",
        "type": "Поликлиники",
        "address": "199155, Санкт-Петербург, В.О. Ул. Железноводская, д. 64",
        "coordinates": [
          59.9499,
          30.2369
        ],
        "district": "Василеостровский",
        "chief": "Петров Антон Андреевич",
        "phone": "417-36-68",
        "fax": "350-64-95",
        "mode": ""
      },
      {
        "number": 66,
        "name": "СПб ГБУЗ \"Городская поликлиника №30\"",
        "type": "Поликлиники",
        "address": "197110, Санкт Петербург, ул. Малая Зеленина, д. 6",
        "coordinates": [
          59.9631,
          30.2806
        ],
        "district": "Петроградский",
        "chief": "Гриненко Олег Александрович",
        "phone": "235 10 77",
        "fax": "235 10 77",
        "mode": ""
      },
      {
        "number": 67,
        "name": "СПб ГБУЗ \"Городская поликлиника №32\"",
        "type": "Поликлиники",
        "address": "197022, Санкт-Петербург, пер.Вяземский, д.3",
        "coordinates": [
          59.9718,
          30.3031
        ],
        "district": "Петроградский",
        "chief": "Ширшова Наталья Юрьевна",
        "phone": "234-57-49",
        "fax": "346-13-88",
        "mode": null
      },
      {
        "number": 68,
        "name": "СПб ГБУЗ \"Городская поликлиника №34\"",
        "type": "Поликлиники",
        "address": "197198, Санкт-Петербург, ул.Зверинская, д.15",
        "coordinates": [
          59.9529,
          30.2975
        ],
        "district": "Петроградский",
        "chief": "Дементьев Владимир Евгеньевич",
        "phone": "233-11-08",
        "fax": "233-11-08",
        "mode": null
      },
      {
        "number": 69,
        "name": "СПб ГБУЗ \"Городская поликлиника №37\"",
        "type": "Поликлиники",
        "address": "191186, Санкт-Петербург, ул.Гороховая, д.6, лит.А",
        "coordinates": [
          59.9359,
          30.3115
        ],
        "district": "Центральный",
        "chief": "Ким Андрей Вячеславович",
        "phone": "312-82-43",
        "fax": "312-82-43",
        "mode": null
      },
      {
        "number": 70,
        "name": "СПб ГБУЗ \"Городская поликлиника №38\"",
        "type": "Поликлиники",
        "address": "193015, Санкт-Петербург, ул. Кавалергардская, д. 26, лит.А",
        "coordinates": [
          59.9462,
          30.3828
        ],
        "district": "Центральный",
        "chief": "Уваров Сергей Юрьевич",
        "phone": "271-44-98",
        "fax": "271-44-98",
        "mode": null
      },
      {
        "number": 71,
        "name": "СПб ГБУЗ \"Городская поликлиника №39\"",
        "type": "Поликлиники",
        "address": "191123, Санкт-Петербург, ул. Фурштатская, д.36, лит.Б",
        "coordinates": [
          59.9454,
          30.3582
        ],
        "district": "Центральный",
        "chief": "Гензик Ольга Владимировна",
        "phone": "272-84-17",
        "fax": "272-99-38",
        "mode": null
      },
      {
        "number": 72,
        "name": "СПб ГБУЗ \"Городская поликлиника №4\"",
        "type": "Поликлиники",
        "address": "199178, Санкт-Петербург, пр. Большой В.О., д. 59, лит. А",
        "coordinates": [
          59.9359,
          30.2694
        ],
        "district": "Василеостровский",
        "chief": "Лотцан-Медведев Анатолий Казимирович",
        "phone": "246-55-84",
        "fax": "246-55-84",
        "mode": null
      },
      {
        "number": 73,
        "name": "СПб ГБУЗ \"Городская поликлиника №43\"",
        "type": "Поликлиники",
        "address": "198207, Санкт-Петербург, пр.Ленинский, д.123, корп.2",
        "coordinates": [
          59.851,
          30.2621
        ],
        "district": "Кировский",
        "chief": "Родыгин Сергей Александрович",
        "phone": "241-37-09",
        "fax": "376-70-65",
        "mode": null
      },
      {
        "number": 74,
        "name": "СПб ГБУЗ \"Городская поликлиника №44\"",
        "type": "Поликлиники",
        "address": "192071, Санкт-Петербург, ул. Будапештская, д.20",
        "coordinates": [
          59.8662,
          30.373
        ],
        "district": "Фрунзенский",
        "chief": "Гопеенко Владимир Викторович",
        "phone": "246-23-96",
        "fax": "246-23-96",
        "mode": null
      },
      {
        "number": 75,
        "name": "СПб ГБУЗ \"Городская поликлиника №46\"",
        "type": "Поликлиники",
        "address": "193174, Санкт Петербург, ул. Седова, д.95, корп. 2, лит.А",
        "coordinates": [
          59.8664,
          30.4413
        ],
        "district": "Невский",
        "chief": "Илюшин Юрий Михайлович",
        "phone": "362 03 68",
        "fax": "362 03 68",
        "mode": ""
      },
      {
        "number": 76,
        "name": "СПб ГБУЗ \"Городская поликлиника №48\"",
        "type": "Поликлиники",
        "address": "196191, Санкт-Петербург, ул. Бассейная, д.19",
        "coordinates": [
          59.8641,
          30.3079
        ],
        "district": "Московский",
        "chief": "Фролова Марина Викторовна",
        "phone": "417-59-89",
        "fax": "375-63-00",
        "mode": ""
      },
      {
        "number": 77,
        "name": "СПб ГБУЗ \"Городская поликлиника №49\"",
        "type": "Поликлиники",
        "address": "197343, Санкт-Петербург, ул.Ланская, д.12",
        "coordinates": [
          59.9992,
          30.3202
        ],
        "district": "Приморский",
        "chief": "Наумова Фарида Хамитовна",
        "phone": "241-33-47",
        "fax": "241-33-47",
        "mode": null
      },
      {
        "number": 78,
        "name": "СПб ГБУЗ \"Городская поликлиника №51\"",
        "type": "Поликлиники",
        "address": "196211, Санкт-Петербург, пр. Космонавтов, д.33-35",
        "coordinates": [
          59.8565,
          30.3488
        ],
        "district": "Московский",
        "chief": "Никитина Оксана Григорьевна",
        "phone": "241-28-60",
        "fax": "241-28-60",
        "mode": null
      },
      {
        "number": 79,
        "name": "СПб ГБУЗ \"Городская поликлиника №52\"",
        "type": "Поликлиники",
        "address": "194356, Санкт Петербург, ул. Асафьева, д.1",
        "coordinates": [
          60.0474,
          30.3201
        ],
        "district": "Выборгский",
        "chief": "Миловатский Сергей Владимирович",
        "phone": "596 00 01",
        "fax": "596 00 13",
        "mode": ""
      },
      {
        "number": 80,
        "name": "СПб ГБУЗ \"Городская поликлиника №54\"",
        "type": "Поликлиники",
        "address": "195197, Санкт-Петербург, ул. Васенко, д.9",
        "coordinates": [
          59.969574,
          30.392575
        ],
        "district": "Калининский",
        "chief": "Каканов Александр Михайлович",
        "phone": "417-40-48",
        "fax": "417-40-48",
        "mode": null
      },
      {
        "number": 81,
        "name": "СПб ГБУЗ \"Городская поликлиника №56\"",
        "type": "Поликлиники",
        "address": "192241, Санкт-Петербург, ул.Пражская, д.40",
        "coordinates": [
          59.8687,
          30.3974
        ],
        "district": "Фрунзенский",
        "chief": "Балашов Алексей Львович",
        "phone": "246-46-93",
        "fax": "246-46-93",
        "mode": null
      },
      {
        "number": 82,
        "name": "СПб ГБУЗ \"Городская поликлиника №6\"",
        "type": "Поликлиники",
        "address": "192148, Санкт-Петербург, пр. Елизарова, д. 32, корп. 2, лит.А",
        "coordinates": [
          59.8928,
          30.4095
        ],
        "district": "Невский",
        "chief": "Бычков Роман Васильевич",
        "phone": "576-03-20",
        "fax": "576-03-20",
        "mode": ""
      },
      {
        "number": 83,
        "name": "СПб ГБУЗ \"Городская поликлиника №60 Пушкинского района\"",
        "type": "Поликлиники",
        "address": "196601, Санкт-Петербург, г. Пушкин, ул. Московская, д. 15",
        "coordinates": [
          59.7207,
          30.4024
        ],
        "district": "Пушкинский",
        "chief": "Жолудь Валентина Борисовна",
        "phone": "246-08-01",
        "fax": "246-08-01",
        "mode": null
      },
      {
        "number": 84,
        "name": "СПб ГБУЗ \"Городская поликлиника №62\"",
        "type": "Поликлиники",
        "address": "190121, Санкт-Петербург, пер. Матвеева, д. 3",
        "coordinates": [
          59.9265,
          30.2922
        ],
        "district": "Адмиралтейский",
        "chief": "Мироненко Александр Николаевич",
        "phone": "326-41-75",
        "fax": "326-41-75",
        "mode": null
      },
      {
        "number": 85,
        "name": "СПб ГБУЗ \"Городская поликлиника №63\"",
        "type": "Детские поликлиники",
        "address": "194358, Санкт-Петербург, ул.Симонова, д.3, литер А",
        "coordinates": [
          60.0563,
          30.3245
        ],
        "district": "Выборгский",
        "chief": "Рубанова Олеся Михайловна",
        "phone": "515-79-13",
        "fax": "515-51-84",
        "mode": null
      },
      {
        "number": 86,
        "name": "СПб ГБУЗ \"Городская поликлиника №71\"",
        "type": "Поликлиники",
        "address": "196653, Санкт-Петербург, г. Колпино, ул.Павловская, д.10",
        "coordinates": [
          59.7468,
          30.5882
        ],
        "district": "Колпинский",
        "chief": "Семенов Дмитрий Викторович",
        "phone": "246-71-46",
        "fax": "246-71-46",
        "mode": null
      },
      {
        "number": 87,
        "name": "СПб ГБУЗ \"Городская поликлиника №72\"",
        "type": "Поликлиники",
        "address": "196641, Санкт-Петербург, п.Металлострой, ул.Пионерская, д.1",
        "coordinates": [
          59.8103,
          30.5725
        ],
        "district": "Колпинский",
        "chief": "Камчаткина Татьяна Александровна",
        "phone": "241-54-60",
        "fax": "241-54-60",
        "mode": null
      },
      {
        "number": 88,
        "name": "СПб ГБУЗ \"Городская поликлиника №74\"",
        "type": "Поликлиники",
        "address": "197762, Санкт-Петербург, г. Кронштадт, ул. Комсомола, д. 2, литер А",
        "coordinates": [
          59.9927,
          29.7888
        ],
        "district": "Кронштадтский",
        "chief": "Сергеев Михаил Николаевич",
        "phone": "311-98-45",
        "fax": "311-98-45",
        "mode": null
      },
      {
        "number": 89,
        "name": "СПб ГБУЗ \"Городская поликлиника №75\"",
        "type": "Поликлиники",
        "address": "196128, Санкт-Петербург, ул. Кузнецовская, д.9",
        "coordinates": [
          59.8708,
          30.309
        ],
        "district": "Московский",
        "chief": "Коновал Алексей Иосифович",
        "phone": "241-37-78",
        "fax": "241-37-78",
        "mode": null
      },
      {
        "number": 90,
        "name": "СПб ГБУЗ \"Городская поликлиника №76\"",
        "type": "Поликлиники",
        "address": "194021, Санкт-Петербург, ул. Хлопина, д.11, корп. 1",
        "coordinates": [
          59.9997,
          30.3748
        ],
        "district": "Калининский",
        "chief": "Алешко Оксана Валерьевна",
        "phone": "534-47-77",
        "fax": "534-47-77",
        "mode": null
      },
      {
        "number": 91,
        "name": "СПб ГБУЗ \"Городская поликлиника №77 Невского района\"",
        "type": "Поликлиники",
        "address": "192177, Санкт-Петербург, пр.Шлиссельбургский, д.25, корп.1",
        "coordinates": [
          59.8373,
          30.5017
        ],
        "district": "Невский",
        "chief": "Габриелова Елена Ивановна",
        "phone": "700-51-49",
        "fax": "700-51-49",
        "mode": null
      },
      {
        "number": 92,
        "name": "СПб ГБУЗ \"Городская поликлиника №78\"",
        "type": "Поликлиники",
        "address": "192239, Санкт-Петербург, ул.Будапештская, д.63 корп.2",
        "coordinates": [
          59.85,
          30.383
        ],
        "district": "Фрунзенский",
        "chief": "Винтовкин Артем Сергеевич",
        "phone": "361-17-00",
        "fax": "361-17-00",
        "mode": null
      },
      {
        "number": 93,
        "name": "СПб ГБУЗ \"Городская поликлиника №8\"",
        "type": "Поликлиники",
        "address": "193315, Санкт-Петербург, ул. Новоселов, д. 45",
        "coordinates": [
          59.885,
          30.4716
        ],
        "district": "Невский",
        "chief": "Комарницкий Владимир Миронович",
        "phone": "409-71-64",
        "fax": "409-71-64",
        "mode": null
      },
      {
        "number": 94,
        "name": "СПб ГБУЗ \"Городская поликлиника №86\"",
        "type": "Поликлиники",
        "address": "195299, Санкт-Петербург, ул.Киришская, д.5, корп.3",
        "coordinates": [
          60.0312,
          30.4229
        ],
        "district": "Калининский",
        "chief": "Дремов Роман Иванович",
        "phone": "417-38-30",
        "fax": "531-58-36",
        "mode": null
      },
      {
        "number": 95,
        "name": "СПб ГБУЗ \"Городская поликлиника №87\"",
        "type": "Поликлиники",
        "address": "193232, Санкт-Петербург, ул.Дыбенко, д.21, корп.2",
        "coordinates": [
          59.9019,
          30.474
        ],
        "district": "Невский",
        "chief": "Сочкова Любовь Викторовна",
        "phone": "241-28-10",
        "fax": "241-28-10",
        "mode": null
      },
      {
        "number": 96,
        "name": "СПб ГБУЗ \"Городская поликлиника №88\"",
        "type": "Поликлиники",
        "address": "198261, Санкт-Петербург, ул.Генерала Симоняка, д.6",
        "coordinates": [
          59.8302,
          30.2053
        ],
        "district": "Кировский",
        "chief": "Левченко Ирина Леонидовна",
        "phone": "702-48-51",
        "fax": "702-48-51",
        "mode": ""
      },
      {
        "number": 97,
        "name": "СПб ГБУЗ \"Городская поликлиника №91\"",
        "type": "Поликлиники",
        "address": "198329, Санкт Петербург, ул.Отважных, д.8",
        "coordinates": [
          59.8356,
          30.1703
        ],
        "district": "Красносельский",
        "chief": "Питерцев Михаил Юрьевич",
        "phone": "241-35-36",
        "fax": "241-35-36",
        "mode": ""
      },
      {
        "number": 98,
        "name": "СПб ГБУЗ \"Городская поликлиника №93\"",
        "type": "Поликлиники",
        "address": "198320, Санкт-Петербург, г.Красное Село, ул. Освобождения, д. 15",
        "coordinates": [
          59.7417,
          30.0888
        ],
        "district": "Красносельский",
        "chief": "Исакова Татьяна Ивановна",
        "phone": "741-16-46",
        "fax": "741-71-24",
        "mode": null
      },
      {
        "number": 99,
        "name": "СПб ГБУЗ \"Городская поликлиника №94 Невского района\"",
        "type": "Поликлиники",
        "address": "193231, Санкт-Петербург, пр.Товарищеский, д.24",
        "coordinates": [
          59.9135,
          30.4877
        ],
        "district": "Невский",
        "chief": "Агеев Михаил Николаевич",
        "phone": "246-26-72",
        "fax": "246-26-72",
        "mode": null
      },
      {
        "number": 100,
        "name": "СПб ГБУЗ \"Городская поликлиника №95\"",
        "type": "Поликлиники",
        "address": "196657, Санкт-Петербург, г.Колпино, ул.Машиностроителей, д.10",
        "coordinates": [
          59.7347,
          30.571
        ],
        "district": "Колпинский",
        "chief": "Исаева Татьяна Викторовна",
        "phone": "241-22-52",
        "fax": "241-22-52",
        "mode": null
      }
    ]
  }