{
  "status": "success",
  "success": true,
  "message": "",
  "details": "",
  "results": [
    {
      "Category": "Металл",
      "Count": 10,
      "Objects": [
        {
          "geometry": {
            "coordinates": [
              30.37165720450625,
              59.99848212868342
            ],
            "type": "Point"
          },
          "properties": {
            "title": "Контейнеры для вторсырья «Петро-Васт»",
            "address": "пр. Непокорённых, 6к2",
            "content_text": "Бумага,Стекло,Пластик,Металл"
          },
          "type": "Feature"
        },
        {
          "geometry": {
            "coordinates": [
              30.38449980331179,
              60.015040290803825
            ],
            "type": "Point"
          },
          "properties": {
            "title": "Пункт приёма «Зелёнка»",
            "address": "пр. Науки, 17к8",
            "content_text": "Бумага,Пластик,Металл,Одежда,Иное,Бытовая техника,Тетра Пак"
          },
          "type": "Feature"
        },
        {
          "geometry": {
            "coordinates": [
              30.38842120013533,
              60.00208855703767
            ],
            "type": "Point"
          },
          "properties": {
            "title": "Контейнеры для вторсырья «ЭкоОтвет»",
            "address": "Гражданский пр., 13к1",
            "content_text": "Бумага,Стекло,Пластик,Металл,Тетра Пак"
          },
          "type": "Feature"
        },
        {
          "geometry": {
            "coordinates": [
              30.380215475227853,
              59.997789355366265
            ],
            "type": "Point"
          },
          "properties": {
            "title": "Контейнеры для вторсырья «ЭкоОтвет»",
            "address": "Гражданский пр., 6к2",
            "content_text": "Бумага,Стекло,Пластик,Металл,Тетра Пак"
          },
          "type": "Feature"
        },
        {
          "geometry": {
            "coordinates": [
              30.391538012751766,
              60.003047052410245
            ],
            "type": "Point"
          },
          "properties": {
            "title": "Контейнеры для вторсырья «ЭкоОтвет»",
            "address": "Гражданский пр., 19к2",
            "content_text": "Бумага,Стекло,Пластик,Металл,Тетра Пак"
          },
          "type": "Feature"
        },
        {
          "geometry": {
            "coordinates": [
              30.392847347228333,
              60.00438512108412
            ],
            "type": "Point"
          },
          "properties": {
            "title": "Контейнеры для вторсырья «ЭкоОтвет»",
            "address": "Гражданский пр., 21к2",
            "content_text": "Бумага,Стекло,Пластик,Металл,Тетра Пак"
          },
          "type": "Feature"
        },
        {
          "geometry": {
            "coordinates": [
              30.3987678220901,
              60.0075638361975
            ],
            "type": "Point"
          },
          "properties": {
            "title": "Пункт приёма",
            "address": "ул. Верности, 9",
            "content_text": "Бумага,Металл"
          },
          "type": "Feature"
        },
        {
          "geometry": {
            "coordinates": [
              30.353350762405285,
              59.992965530252754
            ],
            "type": "Point"
          },
          "properties": {
            "title": "Контейнер для аэрозольных баллончиков",
            "address": "ул. Карбышева, 9",
            "content_text": "Металл"
          },
          "type": "Feature"
        },
        {
          "geometry": {
            "coordinates": [
              30.399046355819706,
              60.015914723675685
            ],
            "type": "Point"
          },
          "properties": {
            "title": "Пункт приёма",
            "address": "Гражданский пр., 84",
            "content_text": "Бумага,Стекло,Металл"
          },
          "type": "Feature"
        },
        {
          "geometry": {
            "coordinates": [
              30.3683666349423,
              59.9900061137523
            ],
            "type": "Point"
          },
          "properties": {
            "title": "Контейнеры для вторсырья «ЭкоОтвет»",
            "address": "Кушелевская дор., 6к1",
            "content_text": "Бумага,Стекло,Пластик,Металл,Тетра Пак"
          },
          "type": "Feature"
        }
      ]
    },
    {
      "Category": "Бумага",
      "Count": 10,
      "Objects": [
        {
          "geometry": {
            "coordinates": [
              30.37165720450625,
              59.99848212868342
            ],
            "type": "Point"
          },
          "properties": {
            "title": "Контейнеры для вторсырья «Петро-Васт»",
            "address": "пр. Непокорённых, 6к2",
            "content_text": "Бумага,Стекло,Пластик,Металл"
          },
          "type": "Feature"
        },
        {
          "geometry": {
            "coordinates": [
              30.38449980331179,
              60.015040290803825
            ],
            "type": "Point"
          },
          "properties": {
            "title": "Пункт приёма «Зелёнка»",
            "address": "пр. Науки, 17к8",
            "content_text": "Бумага,Пластик,Металл,Одежда,Иное,Бытовая техника,Тетра Пак"
          },
          "type": "Feature"
        },
        {
          "geometry": {
            "coordinates": [
              30.358499185180712,
              59.997103554474805
            ],
            "type": "Point"
          },
          "properties": {
            "title": "Контейнер для макулатуры",
            "address": "ул. Карбышева, 10",
            "content_text": "Бумага"
          },
          "type": "Feature"
        },
        {
          "geometry": {
            "coordinates": [
              30.38842120013533,
              60.00208855703767
            ],
            "type": "Point"
          },
          "properties": {
            "title": "Контейнеры для вторсырья «ЭкоОтвет»",
            "address": "Гражданский пр., 13к1",
            "content_text": "Бумага,Стекло,Пластик,Металл,Тетра Пак"
          },
          "type": "Feature"
        },
        {
          "geometry": {
            "coordinates": [
              30.380215475227853,
              59.997789355366265
            ],
            "type": "Point"
          },
          "properties": {
            "title": "Контейнеры для вторсырья «ЭкоОтвет»",
            "address": "Гражданский пр., 6к2",
            "content_text": "Бумага,Стекло,Пластик,Металл,Тетра Пак"
          },
          "type": "Feature"
        },
        {
          "geometry": {
            "coordinates": [
              30.391538012751766,
              60.003047052410245
            ],
            "type": "Point"
          },
          "properties": {
            "title": "Контейнеры для вторсырья «ЭкоОтвет»",
            "address": "Гражданский пр., 19к2",
            "content_text": "Бумага,Стекло,Пластик,Металл,Тетра Пак"
          },
          "type": "Feature"
        },
        {
          "geometry": {
            "coordinates": [
              30.392847347228333,
              60.00438512108412
            ],
            "type": "Point"
          },
          "properties": {
            "title": "Контейнеры для вторсырья «ЭкоОтвет»",
            "address": "Гражданский пр., 21к2",
            "content_text": "Бумага,Стекло,Пластик,Металл,Тетра Пак"
          },
          "type": "Feature"
        },
        {
          "geometry": {
            "coordinates": [
              30.345108514016708,
              59.9976076721876
            ],
            "type": "Point"
          },
          "properties": {
            "title": "Контейнер для макулатуры",
            "address": "Институтский пр., 4",
            "content_text": "Бумага"
          },
          "type": "Feature"
        },
        {
          "geometry": {
            "coordinates": [
              30.3987678220901,
              60.0075638361975
            ],
            "type": "Point"
          },
          "properties": {
            "title": "Пункт приёма",
            "address": "ул. Верности, 9",
            "content_text": "Бумага,Металл"
          },
          "type": "Feature"
        },
        {
          "geometry": {
            "coordinates": [
              30.337685723495042,
              60.001049949770554
            ],
            "type": "Point"
          },
          "properties": {
            "title": "Контейнер для макулатуры",
            "address": "2-й Муринский пр., 19",
            "content_text": "Бумага"
          },
          "type": "Feature"
        }
      ]
    },
    {
      "Category": "Стекло",
      "Count": 10,
      "Objects": [
        {
          "geometry": {
            "coordinates": [
              30.369855451552628,
              60.01343245690804
            ],
            "type": "Point"
          },
          "properties": {
            "title": "Контейнеры для вторсырья «Артэко»",
            "address": "Тихорецкий пр., 7к1",
            "content_text": "Стекло,Пластик"
          },
          "type": "Feature"
        },
        {
          "geometry": {
            "coordinates": [
              30.371105360953567,
              60.015920442459155
            ],
            "type": "Point"
          },
          "properties": {
            "title": "Контейнеры для вторсырья «Артэко»",
            "address": "Тихорецкий пр., 13",
            "content_text": "Стекло,Пластик"
          },
          "type": "Feature"
        },
        {
          "geometry": {
            "coordinates": [
              30.37978000000004,
              60.01257000000004
            ],
            "type": "Point"
          },
          "properties": {
            "title": "Контейнеры для вторсырья «Артэко»",
            "address": "ул. Обручевых, 5",
            "content_text": "Стекло,Пластик"
          },
          "type": "Feature"
        },
        {
          "geometry": {
            "coordinates": [
              30.375278878180737,
              60.015630902042844
            ],
            "type": "Point"
          },
          "properties": {
            "title": "Контейнеры для вторсырья «Артэко»",
            "address": "пр. Науки, 11к2",
            "content_text": "Стекло,Пластик"
          },
          "type": "Feature"
        },
        {
          "geometry": {
            "coordinates": [
              30.358157619069484,
              60.001776554354635
            ],
            "type": "Point"
          },
          "properties": {
            "title": "Контейнеры для вторсырья «Артэко»",
            "address": "пр. Тореза, 28",
            "content_text": "Стекло,Пластик"
          },
          "type": "Feature"
        },
        {
          "geometry": {
            "coordinates": [
              30.373095560042657,
              59.99980151596277
            ],
            "type": "Point"
          },
          "properties": {
            "title": "Контейнеры для вторсырья «Артэко»",
            "address": "ул. Хлопина, 9к1",
            "content_text": "Стекло,Пластик"
          },
          "type": "Feature"
        },
        {
          "geometry": {
            "coordinates": [
              30.38601861554237,
              60.01090156651013
            ],
            "type": "Point"
          },
          "properties": {
            "title": "Контейнеры для вторсырья «Артэко»",
            "address": "Гжатская ул., 22к2",
            "content_text": "Стекло,Пластик"
          },
          "type": "Feature"
        },
        {
          "geometry": {
            "coordinates": [
              30.385833326242068,
              60.0124496928818
            ],
            "type": "Point"
          },
          "properties": {
            "title": "Контейнеры для вторсырья «Артэко»",
            "address": "Гжатская ул., 22к3",
            "content_text": "Стекло,Пластик"
          },
          "type": "Feature"
        },
        {
          "geometry": {
            "coordinates": [
              30.385817232987982,
              60.013270129746665
            ],
            "type": "Point"
          },
          "properties": {
            "title": "Контейнеры для вторсырья «Артэко»",
            "address": "Гжатская ул., 22к4",
            "content_text": "Стекло,Пластик"
          },
          "type": "Feature"
        },
        {
          "geometry": {
            "coordinates": [
              30.37165720450625,
              59.99848212868342
            ],
            "type": "Point"
          },
          "properties": {
            "title": "Контейнеры для вторсырья «Петро-Васт»",
            "address": "пр. Непокорённых, 6к2",
            "content_text": "Бумага,Стекло,Пластик,Металл"
          },
          "type": "Feature"
        }
      ]
    },
    {
      "Category": "Одежда",
      "Count": 10,
      "Objects": [
        {
          "geometry": {
            "coordinates": [
              30.368826398797864,
              60.01305346568193
            ],
            "type": "Point"
          },
          "properties": {
            "title": "Контейнер для сбора вещей благотворительного фонда «Лепта»",
            "address": "Тихорецкий пр., 7к1",
            "content_text": "Одежда,Иное"
          },
          "type": "Feature"
        },
        {
          "geometry": {
            "coordinates": [
              30.354398042791743,
              60.00633865118423
            ],
            "type": "Point"
          },
          "properties": {
            "title": "Контейнер для сбора вещей благотворительного фонда «Лепта»",
            "address": "пр. Тореза, 38А",
            "content_text": "Одежда,Иное"
          },
          "type": "Feature"
        },
        {
          "geometry": {
            "coordinates": [
              30.386539577909822,
              60.01079075276152
            ],
            "type": "Point"
          },
          "properties": {
            "title": "Контейнер для сбора вещей от благотворительного магазина «Спасибо!»",
            "address": "Гжатская ул., 22к2",
            "content_text": "Одежда,Иное"
          },
          "type": "Feature"
        },
        {
          "geometry": {
            "coordinates": [
              30.383550343282078,
              60.00225032449011
            ],
            "type": "Point"
          },
          "properties": {
            "title": "Контейнер для сбора вещей от благотворительного магазина «Спасибо!»",
            "address": "ул. Фаворского, 12",
            "content_text": "Одежда,Иное"
          },
          "type": "Feature"
        },
        {
          "geometry": {
            "coordinates": [
              30.38449980331179,
              60.015040290803825
            ],
            "type": "Point"
          },
          "properties": {
            "title": "Пункт приёма «Зелёнка»",
            "address": "пр. Науки, 17к8",
            "content_text": "Бумага,Пластик,Металл,Одежда,Иное,Бытовая техника,Тетра Пак"
          },
          "type": "Feature"
        },
        {
          "geometry": {
            "coordinates": [
              30.388727474181408,
              60.00390238394065
            ],
            "type": "Point"
          },
          "properties": {
            "title": "Контейнер для сбора вещей благотворительного фонда «Лепта»",
            "address": "Гражданский пр., 17",
            "content_text": "Одежда,Иное"
          },
          "type": "Feature"
        },
        {
          "geometry": {
            "coordinates": [
              30.387547999999992,
              60.00199782048111
            ],
            "type": "Point"
          },
          "properties": {
            "title": "Калининское отделение Российского Красного креста",
            "address": "Гражданский пр., 13к1",
            "content_text": "Одежда,Иное"
          },
          "type": "Feature"
        },
        {
          "geometry": {
            "coordinates": [
              30.34129778769683,
              60.002156194255186
            ],
            "type": "Point"
          },
          "properties": {
            "title": "Контейнер для сбора вещей благотворительного фонда «Лепта»",
            "address": "2-й Муринский пр., 16",
            "content_text": "Одежда,Иное"
          },
          "type": "Feature"
        },
        {
          "geometry": {
            "coordinates": [
              30.397401790598995,
              60.01166220801981
            ],
            "type": "Point"
          },
          "properties": {
            "title": "Контейнер для сбора вещей от благотворительного магазина «Спасибо!»",
            "address": "Гражданский пр., 41",
            "content_text": "Одежда,Иное"
          },
          "type": "Feature"
        },
        {
          "geometry": {
            "coordinates": [
              30.398190307585985,
              60.012617386442734
            ],
            "type": "Point"
          },
          "properties": {
            "title": "Приём одежды в магазине Love Republic",
            "address": "ТРЦ «Академ-Парк», Гражданский пр, 41к2",
            "content_text": "Одежда"
          },
          "type": "Feature"
        }
      ]
    },
    {
      "Category": "Иное",
      "Count": 10,
      "Objects": [
        {
          "geometry": {
            "coordinates": [
              30.368826398797864,
              60.01305346568193
            ],
            "type": "Point"
          },
          "properties": {
            "title": "Контейнер для сбора вещей благотворительного фонда «Лепта»",
            "address": "Тихорецкий пр., 7к1",
            "content_text": "Одежда,Иное"
          },
          "type": "Feature"
        },
        {
          "geometry": {
            "coordinates": [
              30.354398042791743,
              60.00633865118423
            ],
            "type": "Point"
          },
          "properties": {
            "title": "Контейнер для сбора вещей благотворительного фонда «Лепта»",
            "address": "пр. Тореза, 38А",
            "content_text": "Одежда,Иное"
          },
          "type": "Feature"
        },
        {
          "geometry": {
            "coordinates": [
              30.386539577909822,
              60.01079075276152
            ],
            "type": "Point"
          },
          "properties": {
            "title": "Контейнер для сбора вещей от благотворительного магазина «Спасибо!»",
            "address": "Гжатская ул., 22к2",
            "content_text": "Одежда,Иное"
          },
          "type": "Feature"
        },
        {
          "geometry": {
            "coordinates": [
              30.383550343282078,
              60.00225032449011
            ],
            "type": "Point"
          },
          "properties": {
            "title": "Контейнер для сбора вещей от благотворительного магазина «Спасибо!»",
            "address": "ул. Фаворского, 12",
            "content_text": "Одежда,Иное"
          },
          "type": "Feature"
        },
        {
          "geometry": {
            "coordinates": [
              30.38449980331179,
              60.015040290803825
            ],
            "type": "Point"
          },
          "properties": {
            "title": "Пункт приёма «Зелёнка»",
            "address": "пр. Науки, 17к8",
            "content_text": "Бумага,Пластик,Металл,Одежда,Иное,Бытовая техника,Тетра Пак"
          },
          "type": "Feature"
        },
        {
          "geometry": {
            "coordinates": [
              30.388727474181408,
              60.00390238394065
            ],
            "type": "Point"
          },
          "properties": {
            "title": "Контейнер для сбора вещей благотворительного фонда «Лепта»",
            "address": "Гражданский пр., 17",
            "content_text": "Одежда,Иное"
          },
          "type": "Feature"
        },
        {
          "geometry": {
            "coordinates": [
              30.387547999999992,
              60.00199782048111
            ],
            "type": "Point"
          },
          "properties": {
            "title": "Калининское отделение Российского Красного креста",
            "address": "Гражданский пр., 13к1",
            "content_text": "Одежда,Иное"
          },
          "type": "Feature"
        },
        {
          "geometry": {
            "coordinates": [
              30.34129778769683,
              60.002156194255186
            ],
            "type": "Point"
          },
          "properties": {
            "title": "Контейнер для сбора вещей благотворительного фонда «Лепта»",
            "address": "2-й Муринский пр., 16",
            "content_text": "Одежда,Иное"
          },
          "type": "Feature"
        },
        {
          "geometry": {
            "coordinates": [
              30.393045830695385,
              60.01466306798998
            ],
            "type": "Point"
          },
          "properties": {
            "title": "Контейнер для пластиковых карт в пекарне «ЦЕХ85»",
            "address": "пр. Науки, 12",
            "content_text": "Иное"
          },
          "type": "Feature"
        },
        {
          "geometry": {
            "coordinates": [
              30.397401790598995,
              60.01166220801981
            ],
            "type": "Point"
          },
          "properties": {
            "title": "Контейнер для сбора вещей от благотворительного магазина «Спасибо!»",
            "address": "Гражданский пр., 41",
            "content_text": "Одежда,Иное"
          },
          "type": "Feature"
        }
      ]
    },
    {
      "Category": "Тетра Пак",
      "Count": 10,
      "Objects": [
        {
          "geometry": {
            "coordinates": [
              30.38449980331179,
              60.015040290803825
            ],
            "type": "Point"
          },
          "properties": {
            "title": "Пункт приёма «Зелёнка»",
            "address": "пр. Науки, 17к8",
            "content_text": "Бумага,Пластик,Металл,Одежда,Иное,Бытовая техника,Тетра Пак"
          },
          "type": "Feature"
        },
        {
          "geometry": {
            "coordinates": [
              30.38842120013533,
              60.00208855703767
            ],
            "type": "Point"
          },
          "properties": {
            "title": "Контейнеры для вторсырья «ЭкоОтвет»",
            "address": "Гражданский пр., 13к1",
            "content_text": "Бумага,Стекло,Пластик,Металл,Тетра Пак"
          },
          "type": "Feature"
        },
        {
          "geometry": {
            "coordinates": [
              30.380215475227853,
              59.997789355366265
            ],
            "type": "Point"
          },
          "properties": {
            "title": "Контейнеры для вторсырья «ЭкоОтвет»",
            "address": "Гражданский пр., 6к2",
            "content_text": "Бумага,Стекло,Пластик,Металл,Тетра Пак"
          },
          "type": "Feature"
        },
        {
          "geometry": {
            "coordinates": [
              30.391538012751766,
              60.003047052410245
            ],
            "type": "Point"
          },
          "properties": {
            "title": "Контейнеры для вторсырья «ЭкоОтвет»",
            "address": "Гражданский пр., 19к2",
            "content_text": "Бумага,Стекло,Пластик,Металл,Тетра Пак"
          },
          "type": "Feature"
        },
        {
          "geometry": {
            "coordinates": [
              30.392847347228333,
              60.00438512108412
            ],
            "type": "Point"
          },
          "properties": {
            "title": "Контейнеры для вторсырья «ЭкоОтвет»",
            "address": "Гражданский пр., 21к2",
            "content_text": "Бумага,Стекло,Пластик,Металл,Тетра Пак"
          },
          "type": "Feature"
        },
        {
          "geometry": {
            "coordinates": [
              30.3683666349423,
              59.9900061137523
            ],
            "type": "Point"
          },
          "properties": {
            "title": "Контейнеры для вторсырья «ЭкоОтвет»",
            "address": "Кушелевская дор., 6к1",
            "content_text": "Бумага,Стекло,Пластик,Металл,Тетра Пак"
          },
          "type": "Feature"
        },
        {
          "geometry": {
            "coordinates": [
              30.374446399612115,
              59.98888559553002
            ],
            "type": "Point"
          },
          "properties": {
            "title": "Контейнеры для вторсырья «ЭкоОтвет»",
            "address": "Кушелевская дор., 7к1",
            "content_text": "Бумага,Стекло,Пластик,Металл,Тетра Пак"
          },
          "type": "Feature"
        },
        {
          "geometry": {
            "coordinates": [
              30.3724875535202,
              59.988626753057396
            ],
            "type": "Point"
          },
          "properties": {
            "title": "Контейнеры для вторсырья «ЭкоОтвет»",
            "address": "Кушелевская дор., 5к2",
            "content_text": "Бумага,Стекло,Пластик,Металл,Тетра Пак"
          },
          "type": "Feature"
        },
        {
          "geometry": {
            "coordinates": [
              30.36559243216465,
              59.98840120289838
            ],
            "type": "Point"
          },
          "properties": {
            "title": "Контейнеры для вторсырья «ЭкоОтвет»",
            "address": "Кушелевская дор., 6к1",
            "content_text": "Бумага,Стекло,Пластик,Металл,Тетра Пак"
          },
          "type": "Feature"
        },
        {
          "geometry": {
            "coordinates": [
              30.36959737497529,
              59.9876582919403
            ],
            "type": "Point"
          },
          "properties": {
            "title": "Контейнеры для вторсырья «ЭкоОтвет»",
            "address": "Кушелевская дор., 3к4",
            "content_text": "Бумага,Стекло,Пластик,Металл,Тетра Пак"
          },
          "type": "Feature"
        }
      ]
    },
    {
      "Category": "Батарейки",
      "Count": 10,
      "Objects": [
        {
          "geometry": {
            "coordinates": [
              30.34794716831902,
              60.00796788322066
            ],
            "type": "Point"
          },
          "properties": {
            "title": "Контейнер для опасных отходов «Экосервис-СПб»",
            "address": "пр. Тореза, 44к2",
            "content_text": "Опасные отходы,Батарейки,Лампочки"
          },
          "type": "Feature"
        },
        {
          "geometry": {
            "coordinates": [
              30.379834001488188,
              60.01691548027299
            ],
            "type": "Point"
          },
          "properties": {
            "title": "Экотерминал для опасных отходов «Экострой»",
            "address": "ул. Академика Константинова, 1к2",
            "content_text": "Батарейки,Лампочки"
          },
          "type": "Feature"
        },
        {
          "geometry": {
            "coordinates": [
              30.38837697840705,
              60.01327035757177
            ],
            "type": "Point"
          },
          "properties": {
            "title": "Контейнер для опасных отходов  «Экофирма»",
            "address": "Гжатская ул., 22к4",
            "content_text": "Опасные отходы,Батарейки,Лампочки"
          },
          "type": "Feature"
        },
        {
          "geometry": {
            "coordinates": [
              30.391432994442766,
              60.01417279402353
            ],
            "type": "Point"
          },
          "properties": {
            "title": "Контейнер для опасных отходов «Экофирма»",
            "address": "пр. Науки, 17к6",
            "content_text": "Опасные отходы,Батарейки,Лампочки"
          },
          "type": "Feature"
        },
        {
          "geometry": {
            "coordinates": [
              30.398167248535245,
              60.01238973498855
            ],
            "type": "Point"
          },
          "properties": {
            "title": "Контейнер для батареек в магазине «М.Видео»",
            "address": "Гражданский пр., 41Б",
            "content_text": "Батарейки"
          },
          "type": "Feature"
        },
        {
          "geometry": {
            "coordinates": [
              30.39860176639566,
              60.01132796101667
            ],
            "type": "Point"
          },
          "properties": {
            "title": "Контейнер для батареек в магазине «Эльдорадо»",
            "address": "Гражданский пр., 41А",
            "content_text": "Батарейки"
          },
          "type": "Feature"
        },
        {
          "geometry": {
            "coordinates": [
              30.400733041732117,
              60.01142423719245
            ],
            "type": "Point"
          },
          "properties": {
            "title": "Контейнер для батареек в магазине «DNS»",
            "address": "пр. Науки, 21к1",
            "content_text": "Батарейки"
          },
          "type": "Feature"
        },
        {
          "geometry": {
            "coordinates": [
              30.40236419342997,
              60.010928914756434
            ],
            "type": "Point"
          },
          "properties": {
            "title": "Экотерминал для опасных отходов «Экострой»",
            "address": "пр. Науки, 23",
            "content_text": "Батарейки,Лампочки"
          },
          "type": "Feature"
        },
        {
          "geometry": {
            "coordinates": [
              30.402396011321343,
              60.00627309202289
            ],
            "type": "Point"
          },
          "properties": {
            "title": "Контейнер для батареек в магазине «ВкусВилл»",
            "address": "ул. Бутлерова, 11к4",
            "content_text": "Батарейки"
          },
          "type": "Feature"
        },
        {
          "geometry": {
            "coordinates": [
              30.368110039442822,
              59.988649995060946
            ],
            "type": "Point"
          },
          "properties": {
            "title": "Экотерминал для опасных отходов «Экострой»",
            "address": "Кушелевская дор., 8",
            "content_text": "Опасные отходы,Батарейки,Лампочки"
          },
          "type": "Feature"
        }
      ]
    },
    {
      "Category": "Крышечки",
      "Count": 10,
      "Objects": [
        {
          "geometry": {
            "coordinates": [
              30.403161146866033,
              60.010724344908176
            ],
            "type": "Point"
          },
          "properties": {
            "title": "Контейнер для крышечек «Крышечки ДоброТЫ»",
            "address": "ул. Бутлерова, 42",
            "content_text": "Крышечки"
          },
          "type": "Feature"
        },
        {
          "geometry": {
            "coordinates": [
              30.33477215763783,
              60.025455092609
            ],
            "type": "Point"
          },
          "properties": {
            "title": "Контейнер для крышечек «Крышечки ДоброТЫ»",
            "address": "ул. Жака Дюкло, 20",
            "content_text": "Крышечки"
          },
          "type": "Feature"
        },
        {
          "geometry": {
            "coordinates": [
              30.32148672573377,
              60.01742310777372
            ],
            "type": "Point"
          },
          "properties": {
            "title": "Контейнер для крышечек «Крышечки ДоброТЫ»",
            "address": "пр. Энгельса, 66",
            "content_text": "Крышечки"
          },
          "type": "Feature"
        },
        {
          "geometry": {
            "coordinates": [
              30.330021710449383,
              60.029611319722505
            ],
            "type": "Point"
          },
          "properties": {
            "title": "Контейнер для крышечек «Крышечки ДоброТЫ»",
            "address": "ул. Есенина, 1к1",
            "content_text": "Крышечки"
          },
          "type": "Feature"
        },
        {
          "geometry": {
            "coordinates": [
              30.310770026552863,
              60.01618002076454
            ],
            "type": "Point"
          },
          "properties": {
            "title": "Контейнер для крышечек «Крышечки ДоброТЫ»",
            "address": "ул. Аккуратова, 13",
            "content_text": "Крышечки"
          },
          "type": "Feature"
        },
        {
          "geometry": {
            "coordinates": [
              30.37713261156776,
              59.980020130197786
            ],
            "type": "Point"
          },
          "properties": {
            "title": "Контейнер для крышечек «Крышечки ДоброТЫ»",
            "address": "пр. Маршала Блюхера, 9к1",
            "content_text": "Крышечки"
          },
          "type": "Feature"
        },
        {
          "geometry": {
            "coordinates": [
              30.4055292859702,
              60.03213400887952
            ],
            "type": "Point"
          },
          "properties": {
            "title": "Контейнер для крышечек «Крышечки ДоброТЫ»",
            "address": "Учительская ул., 18к1",
            "content_text": "Крышечки"
          },
          "type": "Feature"
        },
        {
          "geometry": {
            "coordinates": [
              30.394721851806718,
              59.98048111773195
            ],
            "type": "Point"
          },
          "properties": {
            "title": "Контейнер для крышечек «Крышечки ДоброТЫ»",
            "address": "Кондратьевский пр., 62к2",
            "content_text": "Крышечки"
          },
          "type": "Feature"
        },
        {
          "geometry": {
            "coordinates": [
              30.321066311173386,
              60.03176024782635
            ],
            "type": "Point"
          },
          "properties": {
            "title": "Контейнер для крышечек «Крышечки ДоброТЫ»",
            "address": "пр. Энгельса, 107к4",
            "content_text": "Крышечки"
          },
          "type": "Feature"
        },
        {
          "geometry": {
            "coordinates": [
              30.30028634957924,
              60.00498823903166
            ],
            "type": "Point"
          },
          "properties": {
            "title": "Контейнер для крышечек «Крышечки ДоброТЫ»",
            "address": "Коломяжский пр., 17к1",
            "content_text": "Крышечки"
          },
          "type": "Feature"
        }
      ]
    },
    {
      "Category": "Бытовая техника",
      "Count": 10,
      "Objects": [
        {
          "geometry": {
            "coordinates": [
              30.38449980331179,
              60.015040290803825
            ],
            "type": "Point"
          },
          "properties": {
            "title": "Пункт приёма «Зелёнка»",
            "address": "пр. Науки, 17к8",
            "content_text": "Бумага,Пластик,Металл,Одежда,Иное,Бытовая техника,Тетра Пак"
          },
          "type": "Feature"
        },
        {
          "geometry": {
            "coordinates": [
              30.398269172477807,
              60.012228862335995
            ],
            "type": "Point"
          },
          "properties": {
            "title": "Приём б/у техники в магазине «М.Видео»",
            "address": "Гражданский пр., 41к2",
            "content_text": "Бытовая техника"
          },
          "type": "Feature"
        },
        {
          "geometry": {
            "coordinates": [
              30.398644681739885,
              60.01142716861444
            ],
            "type": "Point"
          },
          "properties": {
            "title": "Приём б/у техники в магазине «Эльдорадо»",
            "address": "Гражданский пр., 41А",
            "content_text": "Бытовая техника"
          },
          "type": "Feature"
        },
        {
          "geometry": {
            "coordinates": [
              30.353248757475104,
              59.98834837779776
            ],
            "type": "Point"
          },
          "properties": {
            "title": "Приём б/у техники в магазине «М.Видео»",
            "address": "Полюстровский пр., 84",
            "content_text": "Бытовая техника"
          },
          "type": "Feature"
        },
        {
          "geometry": {
            "coordinates": [
              30.30172698944096,
              60.00502970446436
            ],
            "type": "Point"
          },
          "properties": {
            "title": "Приём б/у техники в магазине «М.Видео»",
            "address": "Коломяжский пр., 17к2",
            "content_text": "Бытовая техника"
          },
          "type": "Feature"
        },
        {
          "geometry": {
            "coordinates": [
              30.2995383068848,
              60.00523888429492
            ],
            "type": "Point"
          },
          "properties": {
            "title": "Приём б/у техники в магазине «Эльдорадо»",
            "address": "Коломяжский пр., 17к2",
            "content_text": "Бытовая техника"
          },
          "type": "Feature"
        },
        {
          "geometry": {
            "coordinates": [
              30.32081909027009,
              60.03654857211418
            ],
            "type": "Point"
          },
          "properties": {
            "title": "Приём б/у техники в магазине «Эльдорадо»",
            "address": "пр. Энгельса, 120А",
            "content_text": "Бытовая техника"
          },
          "type": "Feature"
        },
        {
          "geometry": {
            "coordinates": [
              30.31746658045685,
              59.97705906422755
            ],
            "type": "Point"
          },
          "properties": {
            "title": "Приём б/у техники в магазине «М.Видео»",
            "address": "ул. Академика Павлова, 5",
            "content_text": "Бытовая техника"
          },
          "type": "Feature"
        },
        {
          "geometry": {
            "coordinates": [
              30.3310667747498,
              60.05271841051822
            ],
            "type": "Point"
          },
          "properties": {
            "title": "Приём б/у техники в магазине «Эльдорадо»",
            "address": "пр. Просвещения, 19А",
            "content_text": "Бытовая техника"
          },
          "type": "Feature"
        },
        {
          "geometry": {
            "coordinates": [
              30.271789231464535,
              60.00220881930978
            ],
            "type": "Point"
          },
          "properties": {
            "title": "Приём б/у техники в магазине «М.Видео»",
            "address": "Байконурская ул., 14",
            "content_text": "Бытовая техника"
          },
          "type": "Feature"
        }
      ]
    },
    {
      "Category": "Шины",
      "Count": 10,
      "Objects": [
        {
          "geometry": {
            "coordinates": [
              30.363033731436627,
              59.986167504623666
            ],
            "type": "Point"
          },
          "properties": {
            "title": "Контейнер для бесплатного приема шин «Премио Крамб»",
            "address": "пр. Маршала Блюхера, 4к1Б",
            "content_text": "Шины"
          },
          "type": "Feature"
        },
        {
          "geometry": {
            "coordinates": [
              30.335373929857166,
              60.02969430757388
            ],
            "type": "Point"
          },
          "properties": {
            "title": "Контейнер для бесплатного приема шин «Премио Крамб»",
            "address": "Северный пр., 7",
            "content_text": "Шины"
          },
          "type": "Feature"
        },
        {
          "geometry": {
            "coordinates": [
              30.30364907509476,
              60.00202613687612
            ],
            "type": "Point"
          },
          "properties": {
            "title": "Контейнер для бесплатного приема шин «Премио Крамб»",
            "address": "пр. Испытателей, 2к6",
            "content_text": "Шины"
          },
          "type": "Feature"
        },
        {
          "geometry": {
            "coordinates": [
              30.40792032604226,
              60.0344804090812
            ],
            "type": "Point"
          },
          "properties": {
            "title": "Контейнер для бесплатного приема шин «Премио Крамб»",
            "address": "ул. Ушинского, 12М",
            "content_text": "Шины"
          },
          "type": "Feature"
        },
        {
          "geometry": {
            "coordinates": [
              30.37389025417643,
              60.053375410409735
            ],
            "type": "Point"
          },
          "properties": {
            "title": "Контейнер для бесплатного приема шин «Премио Крамб»",
            "address": "Придорожная ал., 28",
            "content_text": "Шины"
          },
          "type": "Feature"
        },
        {
          "geometry": {
            "coordinates": [
              30.26057810066754,
              60.02515597360197
            ],
            "type": "Point"
          },
          "properties": {
            "title": "Контейнер для бесплатного приема шин «Премио Крамб»",
            "address": "Парашютная ул., 45",
            "content_text": "Шины"
          },
          "type": "Feature"
        },
        {
          "geometry": {
            "coordinates": [
              30.250448870627682,
              60.025439011736474
            ],
            "type": "Point"
          },
          "properties": {
            "title": "Площадка для бесплатного приема шин «Премио Крамб»",
            "address": "пр. Королёва, 51",
            "content_text": "Шины"
          },
          "type": "Feature"
        },
        {
          "geometry": {
            "coordinates": [
              30.345053237562272,
              60.07313813459144
            ],
            "type": "Point"
          },
          "properties": {
            "title": "Контейнер для бесплатного приема шин «Премио Крамб»",
            "address": "4-й Верхний пер., 19",
            "content_text": "Шины"
          },
          "type": "Feature"
        },
        {
          "geometry": {
            "coordinates": [
              30.47746705299438,
              59.97314566567938
            ],
            "type": "Point"
          },
          "properties": {
            "title": "Площадка для бесплатного приема шин «Премио Крамб»",
            "address": "ул. Химиков, 26",
            "content_text": "Шины"
          },
          "type": "Feature"
        },
        {
          "geometry": {
            "coordinates": [
              30.46499235111502,
              59.959443977940154
            ],
            "type": "Point"
          },
          "properties": {
            "title": "Контейнер для бесплатного приема шин «Премио Крамб»",
            "address": "Индустриальный пр., 47",
            "content_text": "Шины"
          },
          "type": "Feature"
        }
      ]
    },
    {
      "Category": "Опасные отходы",
      "Count": 10,
      "Objects": [
        {
          "geometry": {
            "coordinates": [
              30.34794716831902,
              60.00796788322066
            ],
            "type": "Point"
          },
          "properties": {
            "title": "Контейнер для опасных отходов «Экосервис-СПб»",
            "address": "пр. Тореза, 44к2",
            "content_text": "Опасные отходы,Батарейки,Лампочки"
          },
          "type": "Feature"
        },
        {
          "geometry": {
            "coordinates": [
              30.38837697840705,
              60.01327035757177
            ],
            "type": "Point"
          },
          "properties": {
            "title": "Контейнер для опасных отходов  «Экофирма»",
            "address": "Гжатская ул., 22к4",
            "content_text": "Опасные отходы,Батарейки,Лампочки"
          },
          "type": "Feature"
        },
        {
          "geometry": {
            "coordinates": [
              30.391432994442766,
              60.01417279402353
            ],
            "type": "Point"
          },
          "properties": {
            "title": "Контейнер для опасных отходов «Экофирма»",
            "address": "пр. Науки, 17к6",
            "content_text": "Опасные отходы,Батарейки,Лампочки"
          },
          "type": "Feature"
        },
        {
          "geometry": {
            "coordinates": [
              30.368110039442822,
              59.988649995060946
            ],
            "type": "Point"
          },
          "properties": {
            "title": "Экотерминал для опасных отходов «Экострой»",
            "address": "Кушелевская дор., 8",
            "content_text": "Опасные отходы,Батарейки,Лампочки"
          },
          "type": "Feature"
        },
        {
          "geometry": {
            "coordinates": [
              30.427801895110402,
              60.033119417699346
            ],
            "type": "Point"
          },
          "properties": {
            "title": "Контейнер для опасных отходов «Экофирма»",
            "address": "пр. Просвещения, 99",
            "content_text": "Опасные отходы,Батарейки,Лампочки"
          },
          "type": "Feature"
        },
        {
          "geometry": {
            "coordinates": [
              30.422893452613145,
              59.977740908971946
            ],
            "type": "Point"
          },
          "properties": {
            "title": "Экотерминал для опасных отходов «Экострой»",
            "address": "Пискарёвский пр., 37к2",
            "content_text": "Опасные отходы,Батарейки,Лампочки"
          },
          "type": "Feature"
        },
        {
          "geometry": {
            "coordinates": [
              30.381753730742727,
              59.96460274029264
            ],
            "type": "Point"
          },
          "properties": {
            "title": "Экотерминал для опасных отходов «Экострой»",
            "address": "Кондратьевский пр., 15к3",
            "content_text": "Опасные отходы,Батарейки"
          },
          "type": "Feature"
        },
        {
          "geometry": {
            "coordinates": [
              30.416107985180705,
              59.96275809663029
            ],
            "type": "Point"
          },
          "properties": {
            "title": "Экобокс Samsung",
            "address": "Апрельская ул., 5",
            "content_text": "Иное,Опасные отходы"
          },
          "type": "Feature"
        },
        {
          "geometry": {
            "coordinates": [
              30.43124027104682,
              59.96681984421504
            ],
            "type": "Point"
          },
          "properties": {
            "title": "Контейнер для опасных отходов  «Экофирма»",
            "address": "ул. Маршала Тухачевского, 13",
            "content_text": "Опасные отходы,Батарейки,Лампочки"
          },
          "type": "Feature"
        },
        {
          "geometry": {
            "coordinates": [
              30.31147449013452,
              60.054428148515676
            ],
            "type": "Point"
          },
          "properties": {
            "title": "Экотерминал для опасных отходов «Экострой»",
            "address": "Выборгское ш., 17к3",
            "content_text": "Опасные отходы,Батарейки,Лампочки"
          },
          "type": "Feature"
        }
      ]
    },
    {
      "Category": "Лампочки",
      "Count": 10,
      "Objects": [
        {
          "geometry": {
            "coordinates": [
              30.34794716831902,
              60.00796788322066
            ],
            "type": "Point"
          },
          "properties": {
            "title": "Контейнер для опасных отходов «Экосервис-СПб»",
            "address": "пр. Тореза, 44к2",
            "content_text": "Опасные отходы,Батарейки,Лампочки"
          },
          "type": "Feature"
        },
        {
          "geometry": {
            "coordinates": [
              30.379834001488188,
              60.01691548027299
            ],
            "type": "Point"
          },
          "properties": {
            "title": "Экотерминал для опасных отходов «Экострой»",
            "address": "ул. Академика Константинова, 1к2",
            "content_text": "Батарейки,Лампочки"
          },
          "type": "Feature"
        },
        {
          "geometry": {
            "coordinates": [
              30.38837697840705,
              60.01327035757177
            ],
            "type": "Point"
          },
          "properties": {
            "title": "Контейнер для опасных отходов  «Экофирма»",
            "address": "Гжатская ул., 22к4",
            "content_text": "Опасные отходы,Батарейки,Лампочки"
          },
          "type": "Feature"
        },
        {
          "geometry": {
            "coordinates": [
              30.391432994442766,
              60.01417279402353
            ],
            "type": "Point"
          },
          "properties": {
            "title": "Контейнер для опасных отходов «Экофирма»",
            "address": "пр. Науки, 17к6",
            "content_text": "Опасные отходы,Батарейки,Лампочки"
          },
          "type": "Feature"
        },
        {
          "geometry": {
            "coordinates": [
              30.40236419342997,
              60.010928914756434
            ],
            "type": "Point"
          },
          "properties": {
            "title": "Экотерминал для опасных отходов «Экострой»",
            "address": "пр. Науки, 23",
            "content_text": "Батарейки,Лампочки"
          },
          "type": "Feature"
        },
        {
          "geometry": {
            "coordinates": [
              30.368110039442822,
              59.988649995060946
            ],
            "type": "Point"
          },
          "properties": {
            "title": "Экотерминал для опасных отходов «Экострой»",
            "address": "Кушелевская дор., 8",
            "content_text": "Опасные отходы,Батарейки,Лампочки"
          },
          "type": "Feature"
        },
        {
          "geometry": {
            "coordinates": [
              30.366013175949103,
              60.0351716998502
            ],
            "type": "Point"
          },
          "properties": {
            "title": "Экотерминал для опасных отходов «Экострой»",
            "address": "пр. Культуры, 3а",
            "content_text": "Батарейки,Лампочки"
          },
          "type": "Feature"
        },
        {
          "geometry": {
            "coordinates": [
              30.325795499999998,
              59.98976769999999
            ],
            "type": "Point"
          },
          "properties": {
            "title": "Экотерминал для опасных отходов «Экострой»",
            "address": "Земледельческая ул., 5А",
            "content_text": "Батарейки,Лампочки"
          },
          "type": "Feature"
        },
        {
          "geometry": {
            "coordinates": [
              30.416459418215624,
              60.03021104282678
            ],
            "type": "Point"
          },
          "properties": {
            "title": "Экотерминал для опасных отходов «Экострой»",
            "address": "Гражданский пр., 111",
            "content_text": "Батарейки,Лампочки"
          },
          "type": "Feature"
        },
        {
          "geometry": {
            "coordinates": [
              30.29873735812296,
              60.005454556866525
            ],
            "type": "Point"
          },
          "properties": {
            "title": "Экотерминал для опасных отходов «Экострой»",
            "address": "Коломяжский пр., 17к1",
            "content_text": "Батарейки,Лампочки"
          },
          "type": "Feature"
        }
      ]
    },
    {
      "Category": "Пластик",
      "Count": 10,
      "Objects": [
        {
          "geometry": {
            "coordinates": [
              30.37106662698365,
              60.01107990099698
            ],
            "type": "Point"
          },
          "properties": {
            "title": "Контейнер для пластиковых бутылок «Артэко»",
            "address": "Тихорецкий пр., 1к2",
            "content_text": "Пластик"
          },
          "type": "Feature"
        },
        {
          "geometry": {
            "coordinates": [
              30.36466017658232,
              60.01278449709235
            ],
            "type": "Point"
          },
          "properties": {
            "title": "Контейнер для пластиковых бутылок «Артэко»",
            "address": "пр. Раевского, 10",
            "content_text": "Пластик"
          },
          "type": "Feature"
        },
        {
          "geometry": {
            "coordinates": [
              30.357061314551625,
              60.00765413887016
            ],
            "type": "Point"
          },
          "properties": {
            "title": "Контейнер для пластиковых бутылок «Артэко»",
            "address": "ул. Курчатова, 4",
            "content_text": "Пластик"
          },
          "type": "Feature"
        },
        {
          "geometry": {
            "coordinates": [
              30.369855451552628,
              60.01343245690804
            ],
            "type": "Point"
          },
          "properties": {
            "title": "Контейнеры для вторсырья «Артэко»",
            "address": "Тихорецкий пр., 7к1",
            "content_text": "Стекло,Пластик"
          },
          "type": "Feature"
        },
        {
          "geometry": {
            "coordinates": [
              30.358710986352193,
              60.00502111676924
            ],
            "type": "Point"
          },
          "properties": {
            "title": "Контейнер для пластиковых бутылок «Артэко»",
            "address": "пр. Тореза, 25",
            "content_text": "Пластик"
          },
          "type": "Feature"
        },
        {
          "geometry": {
            "coordinates": [
              30.355113000000003,
              60.007924999999986
            ],
            "type": "Point"
          },
          "properties": {
            "title": "Контейнер для пластиковых бутылок «Артэко»",
            "address": "пр. Тореза, 33",
            "content_text": "Пластик"
          },
          "type": "Feature"
        },
        {
          "geometry": {
            "coordinates": [
              30.36636857983327,
              60.01481856678601
            ],
            "type": "Point"
          },
          "properties": {
            "title": "Контейнер для пластиковых бутылок «Артэко»",
            "address": "Тихорецкий пр., 12к2",
            "content_text": "Пластик"
          },
          "type": "Feature"
        },
        {
          "geometry": {
            "coordinates": [
              30.361102969448893,
              60.00312084752999
            ],
            "type": "Point"
          },
          "properties": {
            "title": "Контейнер для пластиковых бутылок «Артэко»",
            "address": "пр. Тореза, 21",
            "content_text": "Пластик"
          },
          "type": "Feature"
        },
        {
          "geometry": {
            "coordinates": [
              30.35359544047544,
              60.00800710680654
            ],
            "type": "Point"
          },
          "properties": {
            "title": "Контейнер для пластиковых бутылок «Артэко»",
            "address": "пр. Тореза, 35к1",
            "content_text": "Пластик"
          },
          "type": "Feature"
        },
        {
          "geometry": {
            "coordinates": [
              30.365877,
              60.01588799999998
            ],
            "type": "Point"
          },
          "properties": {
            "title": "Контейнер для пластиковых бутылок «Артэко»",
            "address": "Тихорецкий пр., 16",
            "content_text": "Пластик"
          },
          "type": "Feature"
        }
      ]
    }
  ]
}